[{"title" : "AboutUs",
	 "longitude" : -122.664284,
	 "altitude" : 314,
	 "latitude" : 45.519027,
	 "subtitle" : ""}, {
	 "title" : "Floyd's Coffee Shop",
	 "longitude" : -122.651195,
	 "altitude" : 124,
	 "latitude" : 45.517185,
	 "subtitle" : ""}, {
	 "title" : "Green Dragon",
	 "longitude" : -122.656538,
	 "altitude" : 335,
	 "latitude" : 45.515986,
	 "subtitle" : ""}, {
	 "title" : "The Side Door",
	 "longitude" : -122.661525,
	 "altitude" : 151,
	 "latitude" : 45.518674,
	 "subtitle" : ""}, {
	 "title" : "Urban Grind Coffeehouse and Roasters",
	 "longitude" : -122.64327,
	 "altitude" : 129,
	 "latitude" : 45.52857,
	 "subtitle" : ""}, {
	 "title" : "Urban Grind Coffeehouse",
	 "longitude" : -122.685411,
	 "altitude" : 211,
	 "latitude" : 45.529407,
	 "subtitle" : ""}, {
	 "title" : "Vivace Coffee",
	 "longitude" : -122.698596,
	 "altitude" : 403,
	 "latitude" : 45.532838,
	 "subtitle" : ""}, {
	 "title" : "Fuel Cafe",
	 "longitude" : -122.650496,
	 "altitude" : 135,
	 "latitude" : 45.558949,
	 "subtitle" : ""}, {
	 "title" : "Concordia Coffee",
	 "longitude" : -122.635541,
	 "altitude" : 193,
	 "latitude" : 45.559059,
	 "subtitle" : ""}, {
	 "title" : "Random Order Coffeehouse",
	 "longitude" : -122.646593,
	 "altitude" : 386,
	 "latitude" : 45.558934,
	 "subtitle" : ""}, {
	 "title" : "Extracto",
	 "longitude" : -122.635377,
	 "altitude" : 238,
	 "latitude" : 45.562929,
	 "subtitle" : ""}, {
	 "title" : "World Cup Coffee & Tea Services",
	 "longitude" : -122.689029,
	 "altitude" : 252,
	 "latitude" : 45.526185,
	 "subtitle" : ""}, {
	 "title" : "Albina Press",
	 "longitude" : -122.674962,
	 "altitude" : 337,
	 "latitude" : 45.556745,
	 "subtitle" : ""}, {
	 "title" : "The Observatory",
	 "longitude" : -122.580205,
	 "altitude" : 96,
	 "latitude" : 45.519554,
	 "subtitle" : ""}, {
	 "title" : "Roxy",
	 "longitude" : -122.68261,
	 "altitude" : 126,
	 "latitude" : 45.522463,
	 "subtitle" : ""}, {
	 "title" : "Tea Chai Te",
	 "longitude" : -122.69853,
	 "altitude" : 293,
	 "latitude" : 45.528226,
	 "subtitle" : ""}, {
	 "title" : "Backspace",
	 "longitude" : -122.675759,
	 "altitude" : 289,
	 "latitude" : 45.524081,
	 "subtitle" : ""}, {
	 "title" : "Floyds Coffee Shop Old Town",
	 "longitude" : -122.67158,
	 "altitude" : 262,
	 "latitude" : 45.523849,
	 "subtitle" : ""}, {
	 "title" : "OpenSourcery",
	 "longitude" : -122.688206,
	 "altitude" : 90,
	 "latitude" : 45.529986,
	 "subtitle" : ""}, {
	 "title" : "Townshend's Alberta Street Teahouse",
	 "longitude" : -122.642297,
	 "altitude" : 219,
	 "latitude" : 45.559287,
	 "subtitle" : ""}, {
	 "title" : "Alberta Street Public House",
	 "longitude" : -122.654804,
	 "altitude" : 201,
	 "latitude" : 45.559097,
	 "subtitle" : ""}, {
	 "title" : "Radio Room",
	 "longitude" : -122.65432,
	 "altitude" : 164,
	 "latitude" : 45.559296,
	 "subtitle" : ""}, {
	 "title" : "Ground Kontrol Classic Arcade",
	 "longitude" : -122.675957,
	 "altitude" : 317,
	 "latitude" : 45.523938,
	 "subtitle" : ""}, {
	 "title" : "Bipartisan Cafe",
	 "longitude" : -122.582212,
	 "altitude" : 219,
	 "latitude" : 45.519313,
	 "subtitle" : ""}, {
	 "title" : "Multnomah Library - Albina",
	 "longitude" : -122.650337,
	 "altitude" : 101,
	 "latitude" : 45.54952,
	 "subtitle" : ""}, {
	 "title" : "Multnomah Library - Belmont",
	 "longitude" : -122.622658,
	 "altitude" : 127,
	 "latitude" : 45.51523,
	 "subtitle" : ""}, {
	 "title" : "Multnomah Library - Central",
	 "longitude" : -122.682491,
	 "altitude" : 141,
	 "latitude" : 45.51934,
	 "subtitle" : ""}, {
	 "title" : "Multnomah Library - Gregory Heights",
	 "longitude" : -122.581217,
	 "altitude" : 203,
	 "latitude" : 45.551611,
	 "subtitle" : ""}, {
	 "title" : "Multnomah Libary - Hollywood",
	 "longitude" : -122.621541,
	 "altitude" : 56,
	 "latitude" : 45.537768,
	 "subtitle" : ""}, {
	 "title" : "Multnomah Library - North Portland",
	 "longitude" : -122.671519,
	 "altitude" : 217,
	 "latitude" : 45.562567,
	 "subtitle" : ""}, {
	 "title" : "Multnomah Library - Northwest ",
	 "longitude" : -122.699188,
	 "altitude" : 139,
	 "latitude" : 45.535298,
	 "subtitle" : ""}, {
	 "title" : "OMSI-Oregon Museum-Science",
	 "longitude" : -122.665733,
	 "altitude" : 315,
	 "latitude" : 45.508942,
	 "subtitle" : ""}, {
	 "title" : "Portland Coffee Co.",
	 "longitude" : -122.639792,
	 "altitude" : 286,
	 "latitude" : 45.516667,
	 "subtitle" : ""}, {
	 "title" : "Ristretto Roasters LLC",
	 "longitude" : -122.620363,
	 "altitude" : 221,
	 "latitude" : 45.548676,
	 "subtitle" : ""}, {
	 "title" : "Jim & Patty's Coffee",
	 "longitude" : -122.61155,
	 "altitude" : 213,
	 "latitude" : 45.548295,
	 "subtitle" : ""}, {
	 "title" : "Sapphire Hotel",
	 "longitude" : -122.61116,
	 "altitude" : 361,
	 "latitude" : 45.512005,
	 "subtitle" : ""}, {
	 "title" : "South Park Blocks",
	 "longitude" : -122.684664,
	 "altitude" : 378,
	 "latitude" : 45.514216,
	 "subtitle" : ""}, {
	 "title" : "Stumptown Coffee Roasters",
	 "longitude" : -122.629751,
	 "altitude" : 363,
	 "latitude" : 45.516371,
	 "subtitle" : ""}, {
	 "title" : "Fine Grind",
	 "longitude" : -122.623003,
	 "altitude" : 243,
	 "latitude" : 45.508355,
	 "subtitle" : ""}, {
	 "title" : "Tiny's Stumptown Coffee",
	 "longitude" : -122.653652,
	 "altitude" : 318,
	 "latitude" : 45.512697,
	 "subtitle" : ""}, {
	 "title" : "Powell's Books",
	 "longitude" : -122.681424,
	 "altitude" : 146,
	 "latitude" : 45.523196,
	 "subtitle" : ""}, {
	 "title" : "Manhattan Cafe",
	 "longitude" : -122.637243,
	 "altitude" : 76,
	 "latitude" : 45.53518,
	 "subtitle" : ""}, {
	 "title" : "Jazzkat's Coffee Bar",
	 "longitude" : -122.620433,
	 "altitude" : 165,
	 "latitude" : 45.537013,
	 "subtitle" : ""}, {
	 "title" : "Opposable Thumb Gallery + Cafe",
	 "longitude" : -122.630588,
	 "altitude" : 78,
	 "latitude" : 45.516284,
	 "subtitle" : ""}]