[{
	 "title" : "Kay's Lounge",
	 "longitude" : -122.648781,
	 "altitude" : 111,
	 "latitude" : 45.473989,
	 "subtitle" : ""}, {
	 "title" : "360 Pizzeria",
	 "longitude" : -122.47664,
	 "altitude" : 154,
	 "latitude" : 45.595644,
	 "subtitle" : ""}, {
	 "title" : "Laughing Planet Cafe",
	 "longitude" : -122.630459,
	 "altitude" : 85,
	 "latitude" : 45.516238,
	 "subtitle" : ""}, {
	 "title" : "Concordia Ale House",
	 "longitude" : -122.630971,
	 "altitude" : 67,
	 "latitude" : 45.562443,
	 "subtitle" : ""}, {
	 "title" : "4th Street Brewing Company",
	 "longitude" : -122.429767,
	 "altitude" : 254,
	 "latitude" : 45.500331,
	 "subtitle" : ""}, {
	 "title" : "Alameda Brewing Co",
	 "longitude" : -122.61365,
	 "altitude" : 56,
	 "latitude" : 45.548506,
	 "subtitle" : ""}, {
	 "title" : "Lucky Labrador Brew Pub",
	 "longitude" : -122.656311,
	 "altitude" : 93,
	 "latitude" : 45.512214,
	 "subtitle" : ""}, {
	 "title" : "Mississippi Station",
	 "longitude" : -122.675848,
	 "altitude" : 224,
	 "latitude" : 45.551514,
	 "subtitle" : ""}]
